[{
	"title": "Ride to Mt. Hood",
	"body": "sample_1.html",
	"field_event_images": "sample_1.jpg",
	"field_event_gpx_files": "sample_1.gpx",
	"field_event_mileage": "123",
	"field_event_points": "10",
	"field_event_ref_term_event_type": "8",
	"event_ref_team_coordinator": "11",
	"field_event_ref_team_lead_rc":"12",
	"field_event_ref_team_mid_rc": "13",
	"field_event_ref_team_sweep_rc": "14",
	"field_event_location_start": {
		"organization": "Paradise Harley-Davidson",
		"address_line1": "10770 SW Cascade Ave.",
		"locality": "Tigard",
		"administrative_area": "OR",
		"postal_code": "97223",
		"latitude":"45.442478",
		"longitude":"-122.781114"
	},
	"field_event_location_end": {
		"organization": "Paradise Harley-Davidson",
		"address_line1": "10770 SW Cascade Ave.",
		"locality": "Tigard",
		"administrative_area": "OR",
		"postal_code": "97223",
		"latitude":"45.442478",
		"longitude":"-122.781114"
	},
	"datestring": "first Saturday of %month%"
},{
	"title": "Strawberry Shortcake Ride",
	"body": "sample_2.html",
	"field_event_images": "sample_2.jpg",
	"field_event_gpx_files": "sample_2.gpx",
	"field_event_mileage": "123",
	"field_event_points": "10",
	"field_event_ref_term_event_type": "8",
  "event_ref_team_coordinator": "11",
  "field_event_ref_team_lead_rc":"12",
  "field_event_ref_team_mid_rc": "13",
  "field_event_ref_team_sweep_rc": "14",
	"field_event_location_start": {
		"organization": "Paradise Harley-Davidson",
		"address_line1": "10770 SW Cascade Ave.",
		"locality": "Tigard",
		"administrative_area": "OR",
		"postal_code": "97223",
		"latitude":"45.442478",
		"longitude":"-122.781114"
	},
	"field_event_location_end": {
		"organization": "Paradise Harley-Davidson",
		"address_line1": "10770 SW Cascade Ave.",
		"locality": "Tigard",
		"administrative_area": "OR",
		"postal_code": "97223",
		"latitude":"45.442478",
		"longitude":"-122.781114"
	},
	"datestring": "first Tuesday of %month%"
},{
	"title": "Thursday Ride",
	"body": "sample_3.html",
	"field_event_images": "sample_3.jpg",
	"field_event_gpx_files": "sample_3.gpx",
	"field_event_mileage": "123",
	"field_event_points": "10",
	"field_event_ref_term_event_type": "8",
  "event_ref_team_coordinator": "11",
  "field_event_ref_team_lead_rc":"12",
  "field_event_ref_team_mid_rc": "13",
  "field_event_ref_team_sweep_rc": "14",
	"field_event_location_start": {
		"organization": "Paradise Harley-Davidson",
		"address_line1": "10770 SW Cascade Ave.",
		"locality": "Tigard",
		"administrative_area": "OR",
		"postal_code": "97223",
		"latitude":"45.442478",
		"longitude":"-122.781114"
	},
	"field_event_location_end": {
		"organization": "Paradise Harley-Davidson",
		"address_line1": "10770 SW Cascade Ave.",
		"locality": "Tigard",
		"administrative_area": "OR",
		"postal_code": "97223",
		"latitude":"45.442478",
		"longitude":"-122.781114"
	},
	"datestring": "first Thursday of %month%"
},{
	"title": "Bridge Ride",
	"body": "sample_4.html",
	"field_event_images": "sample_4.jpg",
	"field_event_gpx_files": "sample_4.gpx",
	"field_event_mileage": "123",
	"field_event_points": "10",
	"field_event_ref_term_event_type": "8",
  "event_ref_team_coordinator": "11",
  "field_event_ref_team_lead_rc":"12",
  "field_event_ref_team_mid_rc": "13",
  "field_event_ref_team_sweep_rc": "14",
	"field_event_location_start": {
		"organization": "Paradise Harley-Davidson",
		"address_line1": "10770 SW Cascade Ave.",
		"locality": "Tigard",
		"administrative_area": "OR",
		"postal_code": "97223",
		"latitude":"45.442478",
		"longitude":"-122.781114"
	},
	"field_event_location_end": {
		"organization": "Paradise Harley-Davidson",
		"address_line1": "10770 SW Cascade Ave.",
		"locality": "Tigard",
		"administrative_area": "OR",
		"postal_code": "97223",
		"latitude":"45.442478",
		"longitude":"-122.781114"
	},
	"datestring": "second Saturday of %month%"
},{
	"title": "Johnson Ridge Observatory Ride",
	"body": "sample_5.html",
	"field_event_images": "sample_5.jpg",
	"field_event_gpx_files": "sample_5.gpx",
	"field_event_mileage": "123",
	"field_event_points": "10",
	"field_event_ref_term_event_type": "8",
  "event_ref_team_coordinator": "11",
  "field_event_ref_team_lead_rc":"12",
  "field_event_ref_team_mid_rc": "13",
  "field_event_ref_team_sweep_rc": "14",
	"field_event_location_start": {
		"organization": "Paradise Harley-Davidson",
		"address_line1": "10770 SW Cascade Ave.",
		"locality": "Tigard",
		"administrative_area": "OR",
		"postal_code": "97223",
		"latitude":"45.442478",
		"longitude":"-122.781114"
	},
	"field_event_location_end": {
		"organization": "Paradise Harley-Davidson",
		"address_line1": "10770 SW Cascade Ave.",
		"locality": "Tigard",
		"administrative_area": "OR",
		"postal_code": "97223",
		"latitude":"45.442478",
		"longitude":"-122.781114"
	},
	"datestring": "last Friday of %month%"
},{
	"title": "Monday Ride",
	"body": "sample_6.html",
	"field_event_images": "sample_6.jpg",
	"field_event_gpx_files": "sample_6.gpx",
	"field_event_mileage": "123",
	"field_event_points": "10",
	"field_event_ref_term_event_type": "9",
  "event_ref_team_coordinator": "11",
  "field_event_ref_team_lead_rc":"12",
  "field_event_ref_team_mid_rc": "13",
  "field_event_ref_team_sweep_rc": "14",
	"field_event_location_start": {
		"organization": "Paradise Harley-Davidson",
		"address_line1": "10770 SW Cascade Ave.",
		"locality": "Tigard",
		"administrative_area": "OR",
		"postal_code": "97223",
		"latitude":"45.442478",
		"longitude":"-122.781114"
	},
	"field_event_location_end": {
		"organization": "Paradise Harley-Davidson",
		"address_line1": "10770 SW Cascade Ave.",
		"locality": "Tigard",
		"administrative_area": "OR",
		"postal_code": "97223",
		"latitude":"45.442478",
		"longitude":"-122.781114"
	},
	"datestring": "last Monday of %month%"
},{
	"title": "Thursday Dinner Ride",
	"body": "sample_7.html",
	"field_event_images": "sample_7.jpg",
	"field_event_gpx_files": "sample_7.gpx",
	"field_event_mileage": "123",
	"field_event_points": "10",
	"field_event_ref_term_event_type": "9",
  "event_ref_team_coordinator": "11",
  "field_event_ref_team_lead_rc":"12",
  "field_event_ref_team_mid_rc": "13",
  "field_event_ref_team_sweep_rc": "14",
	"field_event_location_start": {
		"organization": "Paradise Harley-Davidson",
		"address_line1": "10770 SW Cascade Ave.",
		"locality": "Tigard",
		"administrative_area": "OR",
		"postal_code": "97223",
		"latitude":"45.442478",
		"longitude":"-122.781114"
	},
	"field_event_location_end": {
		"organization": "Paradise Harley-Davidson",
		"address_line1": "10770 SW Cascade Ave.",
		"locality": "Tigard",
		"administrative_area": "OR",
		"postal_code": "97223",
		"latitude":"45.442478",
		"longitude":"-122.781114"
	},
	"datestring": "last Thursday of %month%"
},{
	"title": "Sunday Open Ride",
	"body": "sample_1.html",
	"field_event_images": "sample_1.jpg",
	"field_event_gpx_files": "sample_1.gpx",
	"field_event_mileage": "123",
	"field_event_points": "10",
	"field_event_ref_term_event_type": "9",
  "event_ref_team_coordinator": "11",
  "field_event_ref_team_lead_rc":"12",
  "field_event_ref_team_mid_rc": "13",
  "field_event_ref_team_sweep_rc": "14",
	"field_event_location_start": {
		"organization": "Paradise Harley-Davidson",
		"address_line1": "10770 SW Cascade Ave.",
		"locality": "Tigard",
		"administrative_area": "OR",
		"postal_code": "97223",
		"latitude":"45.442478",
		"longitude":"-122.781114"
	},
	"field_event_location_end": {
		"organization": "Paradise Harley-Davidson",
		"address_line1": "10770 SW Cascade Ave.",
		"locality": "Tigard",
		"administrative_area": "OR",
		"postal_code": "97223",
		"latitude":"45.442478",
		"longitude":"-122.781114"
	},
	"datestring": "first Sunday of %month%"
},{
	"title": "Monday Open Ride",
	"body": "sample_2.html",
	"field_event_images": "sample_2.jpg",
	"field_event_gpx_files": "sample_2.gpx",
	"field_event_mileage": "123",
	"field_event_points": "10",
	"field_event_ref_term_event_type": "9",
  "event_ref_team_coordinator": "11",
  "field_event_ref_team_lead_rc":"12",
  "field_event_ref_team_mid_rc": "13",
  "field_event_ref_team_sweep_rc": "14",
	"field_event_location_start": {
		"organization": "Paradise Harley-Davidson",
		"address_line1": "10770 SW Cascade Ave.",
		"locality": "Tigard",
		"administrative_area": "OR",
		"postal_code": "97223",
		"latitude":"45.442478",
		"longitude":"-122.781114"
	},
	"field_event_location_end": {
		"organization": "Paradise Harley-Davidson",
		"address_line1": "10770 SW Cascade Ave.",
		"locality": "Tigard",
		"administrative_area": "OR",
		"postal_code": "97223",
		"latitude":"45.442478",
		"longitude":"-122.781114"
	},
	"datestring": "third Monday of %month%"
},{
	"title": "Saturday Open Ride",
	"body": "sample_3.html",
	"field_event_images": "sample_3.jpg",
	"field_event_gpx_files": "sample_3.gpx",
	"field_event_mileage": "123",
	"field_event_points": "10",
	"field_event_ref_term_event_type": "9",
  "event_ref_team_coordinator": "11",
  "field_event_ref_team_lead_rc":"12",
  "field_event_ref_team_mid_rc": "13",
  "field_event_ref_team_sweep_rc": "14",
	"field_event_location_start": {
		"organization": "Paradise Harley-Davidson",
		"address_line1": "10770 SW Cascade Ave.",
		"locality": "Tigard",
		"administrative_area": "OR",
		"postal_code": "97223",
		"latitude":"45.442478",
		"longitude":"-122.781114"
	},
	"field_event_location_end": {
		"organization": "Paradise Harley-Davidson",
		"address_line1": "10770 SW Cascade Ave.",
		"locality": "Tigard",
		"administrative_area": "OR",
		"postal_code": "97223",
		"latitude":"45.442478",
		"longitude":"-122.781114"
	},
	"datestring": "last Saturday of %month%"
},{
	"title": "Special Closed Event",
	"body": "sample_4.html",
	"field_event_images": "sample_4.jpg",
	"field_event_gpx_files": "",
	"field_event_mileage": "123",
	"field_event_points": "10",
	"field_event_ref_term_event_type": "10",
  "event_ref_team_coordinator": "11",
  "field_event_ref_team_lead_rc":"12",
  "field_event_ref_team_mid_rc": "13",
  "field_event_ref_team_sweep_rc": "14",
	"field_event_location_start": {
		"organization": "Paradise Harley-Davidson",
		"address_line1": "10770 SW Cascade Ave.",
		"locality": "Tigard",
		"administrative_area": "OR",
		"postal_code": "97223",
		"latitude":"45.442478",
		"longitude":"-122.781114"
	},
	"field_event_location_end": {
		"organization": "Paradise Harley-Davidson",
		"address_line1": "10770 SW Cascade Ave.",
		"locality": "Tigard",
		"administrative_area": "OR",
		"postal_code": "97223",
		"latitude":"45.442478",
		"longitude":"-122.781114"
	},
	"datestring": "second Monday of %month%"
},{
	"title": "Friday Karaoke",
	"body": "sample_5.html",
	"field_event_images": "sample_5.jpg",
	"field_event_gpx_files": "",
	"field_event_mileage": "123",
	"field_event_points": "10",
	"field_event_ref_term_event_type": "11",
  "event_ref_team_coordinator": "11",
  "field_event_ref_team_lead_rc":"12",
  "field_event_ref_team_mid_rc": "13",
  "field_event_ref_team_sweep_rc": "14",
	"field_event_location_start": {
		"organization": "Paradise Harley-Davidson",
		"address_line1": "10770 SW Cascade Ave.",
		"locality": "Tigard",
		"administrative_area": "OR",
		"postal_code": "97223",
		"latitude":"45.442478",
		"longitude":"-122.781114"
	},
	"field_event_location_end": {
		"organization": "Paradise Harley-Davidson",
		"address_line1": "10770 SW Cascade Ave.",
		"locality": "Tigard",
		"administrative_area": "OR",
		"postal_code": "97223",
		"latitude":"45.442478",
		"longitude":"-122.781114"
	},
	"datestring": "first Friday of %month%"
},{
	"title": "Chapter Meetig Friday",
	"body": "sample_5.html",
	"field_event_images": "sample_5.jpg",
	"field_event_gpx_files": "",
	"field_event_mileage": "123",
	"field_event_points": "10",
	"field_event_ref_term_event_type": "11",
  "event_ref_team_coordinator": "11",
  "field_event_ref_team_lead_rc":"12",
  "field_event_ref_team_mid_rc": "13",
  "field_event_ref_team_sweep_rc": "14",
	"field_event_location_start": {
		"organization": "Paradise Harley-Davidson",
		"address_line1": "10770 SW Cascade Ave.",
		"locality": "Tigard",
		"administrative_area": "OR",
		"postal_code": "97223",
		"latitude":"45.442478",
		"longitude":"-122.781114"
	},
	"field_event_location_end": {
		"organization": "Paradise Harley-Davidson",
		"address_line1": "10770 SW Cascade Ave.",
		"locality": "Tigard",
		"administrative_area": "OR",
		"postal_code": "97223",
		"latitude":"45.442478",
		"longitude":"-122.781114"
	},
	"datestring": "second Friday of %month%"
},{
	"title": "Business Meeting Thursday",
	"body": "sample_6.html",
	"field_event_images": "sample_6.jpg",
	"field_event_gpx_files": "",
	"field_event_mileage": "123",
	"field_event_points": "10",
	"field_event_ref_term_event_type": "15",
  "event_ref_team_coordinator": "11",
  "field_event_ref_team_lead_rc":"12",
  "field_event_ref_team_mid_rc": "13",
  "field_event_ref_team_sweep_rc": "14",
	"field_event_location_start": {
		"organization": "Paradise Harley-Davidson",
		"address_line1": "10770 SW Cascade Ave.",
		"locality": "Tigard",
		"administrative_area": "OR",
		"postal_code": "97223",
		"latitude":"45.442478",
		"longitude":"-122.781114"
	},
	"field_event_location_end": {
		"organization": "Paradise Harley-Davidson",
		"address_line1": "10770 SW Cascade Ave.",
		"locality": "Tigard",
		"administrative_area": "OR",
		"postal_code": "97223",
		"latitude":"45.442478",
		"longitude":"-122.781114"
	},
	"datestring": "third Thursday of %month%"
},{
	"title": "Ladies Night",
	"body": "sample_6.html",
	"field_event_images": "sample_6.jpg",
	"field_event_gpx_files": "",
	"field_event_mileage": "123",
	"field_event_points": "10",
	"field_event_ref_term_event_type": "12",
  "event_ref_team_coordinator": "11",
  "field_event_ref_team_lead_rc":"12",
  "field_event_ref_team_mid_rc": "13",
  "field_event_ref_team_sweep_rc": "14",
	"field_event_location_start": {
		"organization": "Paradise Harley-Davidson",
		"address_line1": "10770 SW Cascade Ave.",
		"locality": "Tigard",
		"administrative_area": "OR",
		"postal_code": "97223",
		"latitude":"45.442478",
		"longitude":"-122.781114"
	},
	"field_event_location_end": {
		"organization": "Paradise Harley-Davidson",
		"address_line1": "10770 SW Cascade Ave.",
		"locality": "Tigard",
		"administrative_area": "OR",
		"postal_code": "97223",
		"latitude":"45.442478",
		"longitude":"-122.781114"
	},
	"datestring": "third Sunday of %month%"
},{
	"title": "Dealership Extravaganza",
	"body": "sample_7.html",
	"field_event_images": "sample_7.jpg",
	"field_event_gpx_files": "",
	"field_event_mileage": "123",
	"field_event_points": "10",
	"field_event_ref_term_event_type": "13",
  "event_ref_team_coordinator": "11",
  "field_event_ref_team_lead_rc":"12",
  "field_event_ref_team_mid_rc": "13",
  "field_event_ref_team_sweep_rc": "14",
	"field_event_location_start": {
		"organization": "Paradise Harley-Davidson",
		"address_line1": "10770 SW Cascade Ave.",
		"locality": "Tigard",
		"administrative_area": "OR",
		"postal_code": "97223",
		"latitude":"45.442478",
		"longitude":"-122.781114"
	},
	"field_event_location_end": {
		"organization": "Paradise Harley-Davidson",
		"address_line1": "10770 SW Cascade Ave.",
		"locality": "Tigard",
		"administrative_area": "OR",
		"postal_code": "97223",
		"latitude":"45.442478",
		"longitude":"-122.781114"
	},
	"datestring": "last Saturday of %month%"
},{
	"title": "Other MSF Event",
	"body": "sample_1.html",
	"field_event_images": "sample_1.jpg",
	"field_event_gpx_files": "",
	"field_event_mileage": "123",
	"field_event_points": "10",
	"field_event_ref_term_event_type": "14",
  "event_ref_team_coordinator": "11",
  "field_event_ref_team_lead_rc":"12",
  "field_event_ref_team_mid_rc": "13",
  "field_event_ref_team_sweep_rc": "14",
	"field_event_location_start": {
		"organization": "Paradise Harley-Davidson",
		"address_line1": "10770 SW Cascade Ave.",
		"locality": "Tigard",
		"administrative_area": "OR",
		"postal_code": "97223",
		"latitude":"45.442478",
		"longitude":"-122.781114"
	},
	"field_event_location_end": {
		"organization": "Paradise Harley-Davidson",
		"address_line1": "10770 SW Cascade Ave.",
		"locality": "Tigard",
		"administrative_area": "OR",
		"postal_code": "97223",
		"latitude":"45.442478",
		"longitude":"-122.781114"
	},
	"datestring": "last Wednesday of %month%"
}]
